{
  "doctors": [{
    "id": "1",
    "name": "Doctor1",
    "surname": "Doc1",
    "type": "Audiologist",
    "room": "1",
    "working_day": {
      "su": {
        "status": "true",
        "hours": "14:00 - 18:00"
      },
      "mo": {
        "status": "true",
        "hours": "08:00 - 18:00"
      },
      "tu": {
        "status": "true",
        "hours": "08:00 - 18:00"
      },
      "we": {
        "status": "true",
        "hours": "08:00 - 18:00"
      },
      "th": {
        "status": "true",
        "hours": "08:00 - 18:00"
      },
      "fr": {
        "status": "true",
        "hours": "08:00 - 18:00"
      },
      "sa": {
        "status": "false"
      }
    },
    "patient_id": "[1, 3, 5]"
  }, {
    "id": "2",
    "name": "Doctor2",
    "surname": "Doc2",
    "type": "Cardiologist",
    "room": "2",
    "working_day": {
      "su": {
        "status": "true",
        "hours": "14:00 - 18:00"
      },
      "mo": {
        "status": "true",
        "hours": "08:00 - 18:00"
      },
      "tu": {
        "status": "true",
        "hours": "08:00 - 18:00"
      },
      "we": {
        "status": "false"
      },
      "th": {
        "status": "true",
        "hours": "10:00 - 18:00"
      },
      "fr": {
        "status": "false"
      },
      "sa": {
        "status": "false"
      }
    },
    "patient_id": ""
  }, {
    "id": "3",
    "name": "Doctor3",
    "surname": "Doc3",
    "type": "Surgeon",
    "room": "3",
    "working_day": {
      "su": {
        "status": "false"
      },
      "mo": {
        "status": "true",
        "hours": "12:00 - 18:00"
      },
      "tu": {
        "status": "true",
        "hours": "08:00 - 18:00"
      },
      "we": {
        "status": "true",
        "hours": "08:00 - 18:00"
      },
      "th": {
        "status": "false"
      },
      "fr": {
        "status": "true",
        "hours": "08:00 - 18:00"
      },
      "sa": {
        "status": "false"
      }
    },
    "patient_id": "[2]"
  }, {
    "id": "4",
    "name": "Doctor4",
    "surname": "Doc4",
    "type": "Physiologist",
    "room": "4",
    "working_day": {
      "su": {
        "status": "false"
      },
      "mo": {
        "status": "true",
        "hours": "11:00 - 18:00"
      },
      "tu": {
        "status": "true",
        "hours": "08:00 - 15:00"
      },
      "we": {
        "status": "true",
        "hours": "08:00 - 18:00"
      },
      "th": {
        "status": "true",
        "hours": "08:00 - 15:00"
      },
      "fr": {
        "status": "true",
        "hours": "08:00 - 15:00"
      },
      "sa": {
        "status": "false"
      }
    },
    "patient_id": "[4]"
  }, {
    "id": "5",
    "name": "Doctor5",
    "surname": "Doc5",
    "type": "Audiologist",
    "room": "5",
    "working_day": {
      "su": {
        "status": "true",
        "hours": "14:00 - 18:00"
      },
      "mo": {
        "status": "true",
        "hours": "08:00 - 18:00"
      },
      "tu": {
        "status": "true",
        "hours": "08:00 - 18:00"
      },
      "we": {
        "status": "true",
        "hours": "08:00 - 18:00"
      },
      "th": {
        "status": "true",
        "hours": "08:00 - 18:00"
      },
      "fr": {
        "status": "true",
        "hours": "08:00 - 18:00"
      },
      "sa": {
        "status": "false"
      }
    },
    "patient_id": "[7]"
  }, {
    "id": "6",
    "name": "Doctor6",
    "surname": "Doc6",
    "type": "Anesthesiologist",
    "room": "6",
    "working_day": {
      "su": {
        "status": "true",
        "hours": "11:00 - 18:00"
      },
      "mo": {
        "status": "true",
        "hours": "08:00 - 18:00"
      },
      "tu": {
        "status": "true",
        "hours": "08:00 - 18:00"
      },
      "we": {
        "status": "true",
        "hours": "08:00 - 18:00"
      },
      "th": {
        "status": "true",
        "hours": "08:00 - 18:00"
      },
      "fr": {
        "status": "true",
        "hours": "08:00 - 18:00"
      },
      "sa": {
        "status": "false"
      }
    },
    "patient_id": "[6]"
  }, {
    "id": "7",
    "name": "Doctor7",
    "surname": "Doc7",
    "type": "Dentist",
    "room": "7",
    "working_day": {
      "su": {
        "status": "true",
        "hours": "14:00 - 18:00"
      },
      "mo": {
        "status": "true",
        "hours": "08:00 - 18:00"
      },
      "tu": {
        "status": "true",
        "hours": "08:00 - 18:00"
      },
      "we": {
        "status": "true",
        "hours": "08:00 - 18:00"
      },
      "th": {
        "status": "true",
        "hours": "08:00 - 18:00"
      },
      "fr": {
        "status": "true",
        "hours": "08:00 - 18:00"
      },
      "sa": {
        "status": "false"
      }
    },
    "patient_id": ""
  }, {
    "id": "8",
    "name": "Doctor8",
    "surname": "Doc8",
    "type": "Immunologist",
    "room": "8",
    "working_day": {
      "su": {
        "status": "true",
        "hours": "14:00 - 18:00"
      },
      "mo": {
        "status": "true",
        "hours": "08:00 - 18:00"
      },
      "tu": {
        "status": "false"
      },
      "we": {
        "status": "true",
        "hours": "08:00 - 18:00"
      },
      "th": {
        "status": "false"
      },
      "fr": {
        "status": "false"
      },
      "sa": {
        "status": "true",
        "hours": "11:00 - 14:00"
      }
    },
    "patient_id": ""
  }, {
    "id": "9",
    "name": "Doctor9",
    "surname": "Doc9",
    "type": "Neurosurgeon",
    "room": "9",
    "working_day": {
      "su": {
        "status": "false"
      },
      "mo": {
        "status": "true",
        "hours": "08:00 - 18:00"
      },
      "tu": {
        "status": "true",
        "hours": "08:00 - 18:00"
      },
      "we": {
        "status": "true",
        "hours": "08:00 - 18:00"
      },
      "th": {
        "status": "false"
      },
      "fr": {
        "status": "true",
        "hours": "08:00 - 18:00"
      },
      "sa": {
        "status": "false"
      }
    },
    "patient_id": ""
  }, {
    "id": "10",
    "name": "Doctor10",
    "surname": "Doc10",
    "type": "Oncologist",
    "room": "10",
    "working_day": {
      "su": {
        "status": "true",
        "hours": "14:00 - 18:00"
      },
      "mo": {
        "status": "true",
        "hours": "08:00 - 18:00"
      },
      "tu": {
        "status": "false"
      },
      "we": {
        "status": "false"
      },
      "th": {
        "status": "true",
        "hours": "08:00 - 18:00"
      },
      "fr": {
        "status": "true",
        "hours": "08:00 - 18:00"
      },
      "sa": {
        "status": "false"
      }
    },
    "patient_id": ""
  }]
}
